title,address,lon,lat
法国教堂,和平区西宁道9号(近国际商场),117.200765,39.12413
基督教会山西路教堂,和平区山西路62号(近哈密道),117.199517,39.129259
原安里甘教堂,泰安道与浙江路交口,117.220074,39.124793
望海楼教堂,天津海河北岸狮子林桥旁,117.201784,39.153446
天津市基督教会塘沽堂,天津市滨海新区医院路,117.651236,39.021217
清真寺,西北角清真南大寺牌坊内,117.17718,39.150003
天主堂,么六桥,117.407145,39.105279
杨村清真北大寺,天津市武清区,117.070915,39.382571
向阳天主教堂,天津市东丽区向阳路,117.383426,39.186651
滨海清真大寺,滨海新区中心北路10号,117.664314,39.043165